{
  "placeList": [
    {
      "Type": "College",
      "Institutions - Eng Name": "Northern Alberta Institute of Technology (NAIT)",
      "Institutions - Fr Name": "Northern Alberta Institute of Technology (NAIT)",
      "Campus": "",
      "Main/Sub Campus?": "Main",
      "Address": "11762-106 Street",
      "City": "Edmonton",
      "Province": "Alberta",
      "Pcode": "T5G 2R1",
      "phone": "",
      "Connected ": "Yes",
      "Source": "Cybera",
      "CANARIE\nMember": "Yes",
      "AUCC \nMember": "TBC",
      "Comments": "",
      "id": 0,
      "name": "Northern Alberta Institute of Technology (NAIT)",
      "latitude": 53.5664524,
      "longitude": -113.50449800000001
    },
    {
      "Type": "College",
      "Institutions - Eng Name": "Portage College",
      "Institutions - Fr Name": "Portage College",
      "Campus": "",
      "Main/Sub Campus?": "Main",
      "Address": "9531 94 Ave",
      "City": "Lac la Biche",
      "Province": "Alberta",
      "Pcode": "T0A 2C0",
      "phone": "866 623 5551",
      "Connected ": "Yes",
      "Source": "Cybera",
      "CANARIE\nMember": "Yes",
      "AUCC \nMember": "TBC",
      "Comments": "",
      "id": 1,
      "name": "Portage College",
      "latitude": 54.7657618,
      "longitude": -111.97015169999997
    },
    {
      "Type": "College",
      "Institutions - Eng Name": "Southern Alberta Institute of Technology (SAIT)",
      "Institutions - Fr Name": "Southern Alberta Institute of Technology",
      "Campus": "",
      "Main/Sub Campus?": "Main",
      "Address": "1301-16th Avenue NW",
      "City": "Calgary",
      "Province": "Alberta",
      "Pcode": "T2M 0L4",
      "phone": "(403) 210-4409",
      "Connected ": "Yes",
      "Source": "Cybera",
      "CANARIE\nMember": "Yes",
      "AUCC \nMember": "TBC",
      "Comments": "",
      "id": 2,
      "name": "Southern Alberta Institute of Technology (SAIT)",
      "latitude": 51.0668517,
      "longitude": -114.09263040000002
    },
    {
      "Type": "Consortium",
      "Institutions - Eng Name": "Syneme (lab of Dr. Kenneth Fields, Canada Research Chair in Telemedia Arts)",
      "Institutions - Fr Name": "Syneme (lab of Dr. Kenneth Fields, Canada Research Chair in Telemedia Arts)",
      "Campus": "",
      "Main/Sub Campus?": "Sub",
      "Address": "2500 University Drive NW",
      "City": "Calgary",
      "Province": "Alberta",
      "Pcode": "T2N 1N4",
      "phone": "403.220.5254",
      "Connected ": "Yes",
      "Source": "Cybera",
      "CANARIE\nMember": "Yes",
      "AUCC \nMember": "TBC",
      "Comments": "",
      "id": 3,
      "name": "Syneme (lab of Dr. Kenneth Fields, Canada Research Chair in Telemedia Arts)",
      "latitude": 51.0802067,
      "longitude": -114.12533280000002
    },
    {
      "Type": "Federal - Lab",
      "Institutions - Eng Name": "Agriculture and Agri-Food Canada (AAFC) -  Lethbridge Research Centre",
      "Institutions - Fr Name": "",
      "Campus": "",
      "Main/Sub Campus?": "N/A",
      "Address": "Rm B020 - Bldg B102 Main Complex, \n5403 - 1st Ave., \nLethbridge, AB ",
      "City": "Lethbridge",
      "Province": "Alberta",
      "Pcode": "T1J 4B1",
      "phone": "403 327 4561",
      "Connected ": "Yes",
      "Source": "Cybera",
      "CANARIE\nMember": "Yes",
      "AUCC \nMember": "TBC",
      "Comments": "",
      "id": 4,
      "name": "Agriculture and Agri-Food Canada (AAFC) -  Lethbridge Research Centre",
      "latitude": 49.69436109999999,
      "longitude": -112.83675749999998
    },
    {
      "Type": "Industry",
      "Institutions - Eng Name": "Blackbridge Technology Infrastructure",
      "Institutions - Fr Name": "",
      "Campus": "",
      "Main/Sub Campus?": "N/A",
      "Address": "3528 30th Street North",
      "City": "Lethbridge",
      "Province": "Alberta",
      "Pcode": "T1H 6Z4",
      "phone": "403 327 4561",
      "Connected ": "Yes",
      "Source": "Cybera",
      "CANARIE\nMember": "Yes",
      "AUCC \nMember": "TBC",
      "Comments": "",
      "id": "5",
      "name": "Blackbridge Technology Infrastructure",
      "latitude": "49.7303637",
      "longitude": "-112.78652249999999"
    },
    {
      "Type": "Industry",
      "Institutions - Eng Name": "The OpenBSD Foundation",
      "Institutions - Fr Name": "La Fondation OpenBSD",
      "Campus": "",
      "Main/Sub Campus?": "",
      "Address": "8101 160 Street",
      "City": "Edmonton",
      "Province": "Alberta",
      "Pcode": "T5R 2G9",
      "phone": "403 332 6000",
      "Connected ": "Yes",
      "Source": "Cybera",
      "CANARIE\nMember": "Yes",
      "AUCC \nMember": "TBC",
      "Comments": "",
      "id": 6,
      "name": "The OpenBSD Foundation",
      "latitude": 53.516368,
      "longitude": -113.59825360000002
    },
    {
      "Type": "Industry",
      "Institutions - Eng Name": "Rack Force - LMC Project. Not for commerical use ",
      "Institutions - Fr Name": "",
      "Campus": "",
      "Main/Sub Campus?": "N/A",
      "Address": "Suite 200 - 2130 Leckie Place",
      "City": "Kelowna",
      "Province": "British Colombia",
      "Pcode": "V1Y 7W7",
      "phone": "866-468-1158",
      "Connected ": "Yes",
      "Source": "Cybera",
      "CANARIE\nMember": "Yes",
      "AUCC \nMember": "TBC",
      "Comments": "Only connected for the LMC project - not for commerical, as our servers are held at Rackforce.",
      "id": 7,
      "name": "Rack Force - LMC Project. Not for commerical use ",
      "latitude": 49.8861609,
      "longitude": -119.43911230000003
    },
    {
      "Type": "Not for profit industry",
      "Institutions - Eng Name": "TRTech",
      "Institutions - Fr Name": "",
      "Campus": "",
      "Main/Sub Campus?": "N/A",
      "Address": "#1200, 10045 - 111 Street,",
      "City": "Edmonton",
      "Province": "Alberta",
      "Pcode": "T5K 2M5",
      "phone": "780.441.3800",
      "Connected ": "Yes",
      "Source": "Cybera",
      "CANARIE\nMember": "Yes",
      "AUCC \nMember": "TBC",
      "Comments": "",
      "id": 8,
      "name": "TRTech",
      "latitude": 53.5401229,
      "longitude": -113.51182130000001
    },
    {
      "Type": "ORAN",
      "Institutions - Eng Name": "Cybera Inc.",
      "Institutions - Fr Name": "Cybera inc.",
      "Campus": "",
      "Main/Sub Campus?": "N/A",
      "Address": "530B Bio Sciences, 2500 University Drive NW",
      "City": "Calgary",
      "Province": "Alberta",
      "Pcode": "T2N 1N4",
      "phone": "(403)220-2460",
      "Connected ": "Yes",
      "Source": "Cybera",
      "CANARIE\nMember": "Yes",
      "AUCC \nMember": "TBC",
      "Comments": "",
      "id": "9",
      "name": "Cybera Inc.",
      "latitude": "51.0802067",
      "longitude": "-114.12533280000002"
    },
    {
      "Type": "Provincial - Cultural",
      "Institutions - Eng Name": "The Banff Centre",
      "Institutions - Fr Name": "The Banff Centre",
      "Campus": "",
      "Main/Sub Campus?": "",
      "Address": "PO Box 1020",
      "City": "Banff",
      "Province": "Alberta",
      "Pcode": "T1L 1H5",
      "phone": "(403)762-6291",
      "Connected ": "Yes",
      "Source": "Cybera",
      "CANARIE\nMember": "Yes",
      "AUCC \nMember": "TBC",
      "Comments": "",
      "id": 10,
      "name": "The Banff Centre",
      "latitude": 51.17569659999999,
      "longitude": -115.57187520000002
    },
    {
      "Type": "Provincial - Department",
      "Institutions - Eng Name": "Alberta Education",
      "Institutions - Fr Name": "Ministère de l’Éducation de l’Alberta",
      "Campus": "",
      "Main/Sub Campus?": "",
      "Address": "10044 - 108 Street NW",
      "City": "Edmonton",
      "Province": "Alberta",
      "Pcode": "T5J 5E6",
      "phone": "(780) 427-0253",
      "Connected ": "Yes",
      "Source": "Cybera",
      "CANARIE\nMember": "Yes",
      "AUCC \nMember": "TBC",
      "Comments": "",
      "id": 11,
      "name": "Alberta Education",
      "latitude": 53.5400793,
      "longitude": -113.5066392
    },
    {
      "Type": "Provincial - Lab",
      "Institutions - Eng Name": "Institute for Biocomplexity and Informatics",
      "Institutions - Fr Name": "Institute for Biocomplexity and Informatics (Peter Tieleman)",
      "Campus": "",
      "Main/Sub Campus?": "",
      "Address": "Room # 547, Biological Sciences Building, 2500 University Dr. N.W. ",
      "City": "Calgary",
      "Province": "Alberta",
      "Pcode": "T2N 1N4",
      "phone": "(403)220-2425",
      "Connected ": "Yes",
      "Source": "Cybera",
      "CANARIE\nMember": "Yes",
      "AUCC \nMember": "TBC",
      "Comments": "",
      "id": 12,
      "name": "Institute for Biocomplexity and Informatics",
      "latitude": 51.0802067,
      "longitude": -114.12533280000002
    },
    {
      "Type": "Public body",
      "Institutions - Eng Name": "Edmonton Public Library",
      "Institutions - Fr Name": "",
      "Campus": "",
      "Main/Sub Campus?": "",
      "Address": "7 Sir Winston Churchill Square",
      "City": "Edmonton",
      "Province": "Alberta",
      "Pcode": "T5J 2V4",
      "phone": "780.496.7000",
      "Connected ": "Yes",
      "Source": "Cybera",
      "CANARIE\nMember": "Yes",
      "AUCC \nMember": "TBC",
      "Comments": "",
      "id": 13,
      "name": "Edmonton Public Library",
      "latitude": 53.542897,
      "longitude": -113.48975860000002
    },
    {
      "Type": "Schools / K-12",
      "Institutions - Eng Name": "Black Gold Regional Division No.18",
      "Institutions - Fr Name": "",
      "Campus": "",
      "Main/Sub Campus?": "",
      "Address": " 3rd Floor, 1101 - 5th Street ",
      "City": "Nisku",
      "Province": "Alberta",
      "Pcode": "T9E 7N3 ",
      "phone": "(780) 955-6025 ",
      "Connected ": "Yes",
      "Source": "Cybera",
      "CANARIE\nMember": "Yes",
      "AUCC \nMember": "TBC",
      "Comments": "",
      "id": 14,
      "name": "Black Gold Regional Division No.18",
      "latitude": 53.31001639999999,
      "longitude": -113.53299670000001
    },
    {
      "Type": "Schools / K-12",
      "Institutions - Eng Name": "Calgary Catholic School District",
      "Institutions - Fr Name": "",
      "Campus": "",
      "Main/Sub Campus?": "",
      "Address": "1000 - 5 Avenue SW",
      "City": "Calgary",
      "Province": "Alberta",
      "Pcode": "T2P 4T9",
      "phone": "(403) 500-2000",
      "Connected ": "Yes",
      "Source": "Cybera",
      "CANARIE\nMember": "Yes",
      "AUCC \nMember": "TBC",
      "Comments": "",
      "id": 15,
      "name": "Calgary Catholic School District",
      "latitude": 51.04902209999999,
      "longitude": -114.0836377
    },
    {
      "Type": "Schools / K-12",
      "Institutions - Eng Name": "Canadian Rockies School District No.12",
      "Institutions - Fr Name": "",
      "Campus": "",
      "Main/Sub Campus?": "",
      "Address": "1800 8 Ave ",
      "City": "Canmore",
      "Province": "Alberta",
      "Pcode": "T1W 1Y2",
      "phone": "403 678 8794",
      "Connected ": "Yes",
      "Source": "Cybera",
      "CANARIE\nMember": "Yes",
      "AUCC \nMember": "TBC",
      "Comments": "",
      "id": 16,
      "name": "Canadian Rockies School District No.12",
      "latitude": 51.0972015,
      "longitude": -115.36334899999997
    },
    {
      "Type": "Schools / K-12",
      "Institutions - Eng Name": "Chinook's Edge School Division",
      "Institutions - Fr Name": "Chinook's Edge School Division",
      "Campus": "",
      "Main/Sub Campus?": "",
      "Address": "4904 50th Street",
      "City": "Innisfail",
      "Province": "Alberta",
      "Pcode": "T4G 1W4",
      "phone": "1-403-227-7070",
      "Connected ": "Yes",
      "Source": "Cybera",
      "CANARIE\nMember": "Yes",
      "AUCC \nMember": "TBC",
      "Comments": "",
      "id": 17,
      "name": "Chinook's Edge School Division",
      "latitude": 52.0274508,
      "longitude": -113.94725719999997
    },
    {
      "Type": "Schools / K-12",
      "Institutions - Eng Name": "Fort McMurray Catholic Board of Education",
      "Institutions - Fr Name": "",
      "Campus": "",
      "Main/Sub Campus?": "",
      "Address": "9809 Main Street",
      "City": "Fort McMurray",
      "Province": "Alberta",
      "Pcode": "T9H 1T7",
      "phone": "780 799 5700",
      "Connected ": "Yes",
      "Source": "Cybera",
      "CANARIE\nMember": "Yes",
      "AUCC \nMember": "TBC",
      "Comments": "",
      "id": 18,
      "name": "Fort McMurray Catholic Board of Education",
      "latitude": 56.7262518,
      "longitude": -111.3835722
    },
    {
      "Type": "Schools / K-12",
      "Institutions - Eng Name": "Fort Vermillion School Division",
      "Institutions - Fr Name": "Fort Vermillion School Division",
      "Campus": "",
      "Main/Sub Campus?": "",
      "Address": "P.O. Bag 1, 5213 River Road",
      "City": "Fort Vermilion",
      "Province": "Alberta",
      "Pcode": "T0H 1N0",
      "phone": "(780) 927-3766",
      "Connected ": "Yes",
      "Source": "Cybera",
      "CANARIE\nMember": "Yes",
      "AUCC \nMember": "TBC",
      "Comments": "",
      "id": 19,
      "name": "Fort Vermillion School Division",
      "latitude": 58.377531,
      "longitude": -116.00583899999998
    },
    {
      "Type": "Schools / K-12",
      "Institutions - Eng Name": "Golden Hills School Division No.75",
      "Institutions - Fr Name": "",
      "Campus": "",
      "Main/Sub Campus?": "",
      "Address": "435A, Alberta 1",
      "City": "Strathmore",
      "Province": "Alberta",
      "Pcode": "T1P 1J4",
      "phone": "403 934 5121",
      "Connected ": "Yes",
      "Source": "Cybera",
      "CANARIE\nMember": "Yes",
      "AUCC \nMember": "TBC",
      "Comments": "",
      "id": 20,
      "name": "Golden Hills School Division No.75",
      "latitude": 51.0377614,
      "longitude": -113.40020249999998
    },
    {
      "Type": "Schools / K-12",
      "Institutions - Eng Name": "High Prairie School Division No.48",
      "Institutions - Fr Name": "",
      "Campus": "",
      "Main/Sub Campus?": "",
      "Address": "4800 53 Ave",
      "City": "High Prairie",
      "Province": "Alberta",
      "Pcode": "T0G 1E0",
      "phone": "(780) 523-3337",
      "Connected ": "Yes",
      "Source": "Cybera",
      "CANARIE\nMember": "Yes",
      "AUCC \nMember": "TBC",
      "Comments": "",
      "id": 21,
      "name": "High Prairie School Division No.48",
      "latitude": 55.43285419999999,
      "longitude": -116.4888305
    },
    {
      "Type": "Schools / K-12",
      "Institutions - Eng Name": "Lethbridge School District No.51",
      "Institutions - Fr Name": "",
      "Campus": "",
      "Main/Sub Campus?": "",
      "Address": "259 Britannia Blvd W ",
      "City": "Lethbridge",
      "Province": "Alberta",
      "Pcode": "T1J 4A3",
      "phone": "403 320 7565",
      "Connected ": "Yes",
      "Source": "Cybera",
      "CANARIE\nMember": "Yes",
      "AUCC \nMember": "TBC",
      "Comments": "",
      "id": 22,
      "name": "Lethbridge School District No.51",
      "latitude": 49.6743151,
      "longitude": -112.90747579999999
    },
    {
      "Type": "Schools / K-12",
      "Institutions - Eng Name": "Medicine Hat School District No.76",
      "Institutions - Fr Name": "",
      "Campus": "",
      "Main/Sub Campus?": "",
      "Address": "901 Hargrave Way NW",
      "City": "Medicine Hat",
      "Province": "Alberta",
      "Pcode": "T1A 6Y8",
      "phone": "403 527 3750",
      "Connected ": "Yes",
      "Source": "Cybera",
      "CANARIE\nMember": "Yes",
      "AUCC \nMember": "TBC",
      "Comments": "",
      "id": 23,
      "name": "Medicine Hat School District No.76",
      "latitude": 50.05124929999999,
      "longitude": -110.69544229999997
    },
    {
      "Type": "Schools / K-12",
      "Institutions - Eng Name": "Northland School Division No.61",
      "Institutions - Fr Name": "",
      "Campus": "",
      "Main/Sub Campus?": "",
      "Address": "9809-77th Avenue",
      "City": "Peace River",
      "Province": "Alberta",
      "Pcode": "T8S 1V2",
      "phone": "780 624 2060",
      "Connected ": "Yes",
      "Source": "Cybera",
      "CANARIE\nMember": "Yes",
      "AUCC \nMember": "TBC",
      "Comments": "",
      "id": 24,
      "name": "Northland School Division No.61",
      "latitude": 56.2555554,
      "longitude": -117.29214509999997
    },
    {
      "Type": "Schools / K-12",
      "Institutions - Eng Name": "Parkland School Division No.70",
      "Institutions - Fr Name": "",
      "Campus": "",
      "Main/Sub Campus?": "",
      "Address": "4603- 48 Street",
      "City": "Stony Plain",
      "Province": "Alberta",
      "Pcode": "T7Z 2A8",
      "phone": "780 963 8404",
      "Connected ": "Yes",
      "Source": "Cybera",
      "CANARIE\nMember": "Yes",
      "AUCC \nMember": "TBC",
      "Comments": "",
      "id": 25,
      "name": "Parkland School Division No.70",
      "latitude": 53.5332893,
      "longitude": -114.0006381
    },
    {
      "Type": "Schools / K-12",
      "Institutions - Eng Name": "Peace River School Division No.10",
      "Institutions - Fr Name": "",
      "Campus": "",
      "Main/Sub Campus?": "",
      "Address": "10018 - 101 Street",
      "City": "Peace River",
      "Province": "Alberta",
      "Pcode": "T8S 2A5",
      "phone": "780 624 5941",
      "Connected ": "Yes",
      "Source": "Cybera",
      "CANARIE\nMember": "Yes",
      "AUCC \nMember": "TBC",
      "Comments": "",
      "id": 26,
      "name": "Peace River School Division No.10",
      "latitude": 56.23305509999999,
      "longitude": -117.28861
    },
    {
      "Type": "Schools / K-12",
      "Institutions - Eng Name": "Peace Wapiti School Division No.76",
      "Institutions - Fr Name": "",
      "Campus": "",
      "Main/Sub Campus?": "",
      "Address": "8611A 108 St",
      "City": "Grande Prairie",
      "Province": "Alberta",
      "Pcode": "T0H 0C0",
      "phone": "780 3542446",
      "Connected ": "Yes",
      "Source": "Cybera",
      "CANARIE\nMember": "Yes",
      "AUCC \nMember": "TBC",
      "Comments": "",
      "id": 27,
      "name": "Peace Wapiti School Division No.76",
      "latitude": 55.3365653,
      "longitude": -119.56420459999998
    },
    {
      "Type": "Schools / K-12",
      "Institutions - Eng Name": "Red Deer Catholic Regional Division No. 39",
      "Institutions - Fr Name": "Red Deer Catholic Regional Division No. 39",
      "Campus": "",
      "Main/Sub Campus?": "",
      "Address": "Monfort Centre 5210-61 Street",
      "City": "Red Deer",
      "Province": "Alberta",
      "Pcode": "T4N 6N8",
      "phone": "(403) 343-1055",
      "Connected ": "Yes",
      "Source": "Cybera",
      "CANARIE\nMember": "Yes",
      "AUCC \nMember": "TBC",
      "Comments": "",
      "id": 28,
      "name": "Red Deer Catholic Regional Division No. 39",
      "latitude": 52.2824691,
      "longitude": -113.81751639999999
    },
    {
      "Type": "Schools / K-12",
      "Institutions - Eng Name": "Rocky View School Division No.14",
      "Institutions - Fr Name": "",
      "Campus": "",
      "Main/Sub Campus?": "",
      "Address": "2651 Chinook Winds Dr SW",
      "City": "Airdrie",
      "Province": "Alberta",
      "Pcode": "T4B 0B4",
      "phone": "(403) 948-3250",
      "Connected ": "Yes",
      "Source": "Cybera",
      "CANARIE\nMember": "Yes",
      "AUCC \nMember": "TBC",
      "Comments": "",
      "id": 29,
      "name": "Rocky View School Division No.14",
      "latitude": 51.2693192,
      "longitude": -114.03057000000001
    },
    {
      "Type": "Schools / K-12",
      "Institutions - Eng Name": "Wild Rose Public Schools",
      "Institutions - Fr Name": "",
      "Campus": "",
      "Main/Sub Campus?": "",
      "Address": "4912 - 43 Street ",
      "City": "Rocky Mountain House",
      "Province": "Alberta",
      "Pcode": "T4T 1P4",
      "phone": "403 845 3376",
      "Connected ": "Yes",
      "Source": "Cybera",
      "CANARIE\nMember": "Yes",
      "AUCC \nMember": "TBC",
      "Comments": "",
      "id": 30,
      "name": "Wild Rose Public Schools",
      "latitude": 52.3738076,
      "longitude": -114.90393540000002
    },
    {
      "Type": "Schools / K-12",
      "Institutions - Eng Name": "Wolf Creek Public Schools ",
      "Institutions - Fr Name": "",
      "Campus": "",
      "Main/Sub Campus?": "",
      "Address": "6000 Highway 2A",
      "City": "Ponoka",
      "Province": "Alberta",
      "Pcode": "T4J 1P6",
      "phone": "403 783 3483",
      "Connected ": "Yes",
      "Source": "Cybera",
      "CANARIE\nMember": "Yes",
      "AUCC \nMember": "TBC",
      "Comments": "",
      "id": 31,
      "name": "Wolf Creek Public Schools ",
      "latitude": 52.6806225,
      "longitude": -113.58309580000002
    },
    {
      "Type": "Schools / K-12",
      "Institutions - Eng Name": "Aspen View Public Schools Regional Division No.19",
      "Institutions - Fr Name": "",
      "Campus": "",
      "Main/Sub Campus?": "",
      "Address": "3600 48th Avenue",
      "City": "Athabasca",
      "Province": "Alberta",
      "Pcode": "T9S 1M8",
      "phone": "780 675 7080",
      "Connected ": "Yes",
      "Source": "Cybera",
      "CANARIE\nMember": "Yes",
      "AUCC \nMember": "TBC",
      "Comments": "",
      "id": 32,
      "name": "Aspen View Public Schools Regional Division No.19",
      "latitude": 54.7169518,
      "longitude": -113.25980400000003
    },
    {
      "Type": "University",
      "Institutions - Eng Name": "Athabasca University - Calgary",
      "Institutions - Fr Name": "Athabasca University",
      "Campus": "Calgary",
      "Main/Sub Campus?": "Sub",
      "Address": "1040 7 Ave SW,",
      "City": "Calgary",
      "Province": "Alberta",
      "Pcode": "T2P 3G9",
      "phone": "1-800-788-9041",
      "Connected ": "Yes",
      "Source": "Cybera",
      "CANARIE\nMember": "Yes",
      "AUCC \nMember": "TBC",
      "Comments": "",
      "id": 33,
      "name": "Athabasca University - Calgary",
      "latitude": 51.0471564,
      "longitude": -114.08599400000003
    },
    {
      "Type": "University",
      "Institutions - Eng Name": "Athabasca University - Edmonton",
      "Institutions - Fr Name": "Athabasca University",
      "Campus": "Edmonton",
      "Main/Sub Campus?": "Sub",
      "Address": "10011 109 St NW",
      "City": "Edmonton",
      "Province": "Alberta",
      "Pcode": "T5J 3S8",
      "phone": "1-800-788-9041",
      "Connected ": "Yes",
      "Source": "Cybera",
      "CANARIE\nMember": "Yes",
      "AUCC \nMember": "TBC",
      "Comments": "",
      "id": 34,
      "name": "Athabasca University - Edmonton",
      "latitude": 53.53938249999999,
      "longitude": -113.50835110000003
    },
    {
      "Type": "University",
      "Institutions - Eng Name": "Athabasca Universtiy",
      "Institutions - Fr Name": "Athabasca Universtiy",
      "Campus": "Athabasca",
      "Main/Sub Campus?": "Main",
      "Address": "1 University Drive",
      "City": "Athabasca",
      "Province": "Alberta",
      "Pcode": "T9S 3A3",
      "phone": "1-800-788-9041",
      "Connected ": "Yes",
      "Source": "Cybera",
      "CANARIE\nMember": "Yes",
      "AUCC \nMember": "TBC",
      "Comments": "",
      "id": 35,
      "name": "Athabasca Universtiy",
      "latitude": 54.7180247,
      "longitude": -113.30754000000002
    },
    {
      "Type": "University",
      "Institutions - Eng Name": "CAIN project - Canadian Atherosclerosis Imaging Network",
      "Institutions - Fr Name": "",
      "Campus": "HBI/UofC & Foothils Hospital",
      "Main/Sub Campus?": "Sub",
      "Address": "1403 29 Street NW",
      "City": "Calgary",
      "Province": "Alberta",
      "Pcode": "T2N 2T9",
      "phone": "403 944 8321",
      "Connected ": "Yes",
      "Source": "Cybera",
      "CANARIE\nMember": "Yes",
      "AUCC \nMember": "TBC",
      "Comments": "",
      "id": 36,
      "name": "CAIN project - Canadian Atherosclerosis Imaging Network",
      "latitude": 51.06498029999999,
      "longitude": -114.13062890000003
    },
    {
      "Type": "University",
      "Institutions - Eng Name": "MacEwan University",
      "Institutions - Fr Name": "",
      "Campus": "",
      "Main/Sub Campus?": "",
      "Address": "10700 104 Ave NW,",
      "City": "Edmonton",
      "Province": "Alberta",
      "Pcode": "T5J 4S2",
      "phone": "780 497 5040",
      "Connected ": "Yes",
      "Source": "Cybera",
      "CANARIE\nMember": "Yes",
      "AUCC \nMember": "TBC",
      "Comments": "",
      "id": 37,
      "name": "MacEwan University",
      "latitude": 53.5465444,
      "longitude": -113.50484210000002
    },
    {
      "Type": "University",
      "Institutions - Eng Name": "Mount Royal University",
      "Institutions - Fr Name": "Mount Royal University",
      "Campus": "",
      "Main/Sub Campus?": "Main",
      "Address": "4825 Richard Road SW",
      "City": "Calgary",
      "Province": "Alberta",
      "Pcode": "T3E 6K6",
      "phone": "(403)440-7204",
      "Connected ": "Yes",
      "Source": "Cybera",
      "CANARIE\nMember": "Yes",
      "AUCC \nMember": "TBC",
      "Comments": "",
      "id": 38,
      "name": "Mount Royal University",
      "latitude": 51.010946,
      "longitude": -114.12754999999999
    },
    {
      "Type": "University",
      "Institutions - Eng Name": "University of Alberta",
      "Institutions - Fr Name": "University of Alberta",
      "Campus": "North Campus",
      "Main/Sub Campus?": "Main",
      "Address": "2-10 University Hall",
      "City": "Edmonton",
      "Province": "Alberta",
      "Pcode": "T6G 2J9",
      "phone": "(780)492-4485",
      "Connected ": "Yes",
      "Source": "Cybera",
      "CANARIE\nMember": "Yes",
      "AUCC \nMember": "yes",
      "Comments": "",
      "id": 39,
      "name": "University of Alberta",
      "latitude": 53.5275362,
      "longitude": -113.52688390000003
    },
    {
      "Type": "University",
      "Institutions - Eng Name": "University of Alberta",
      "Institutions - Fr Name": "University of Alberta",
      "Campus": "Augustana",
      "Main/Sub Campus?": "Sub",
      "Address": "4901 46 Ave",
      "City": "Camrose",
      "Province": "Alberta",
      "Pcode": "T4V 2R3",
      "phone": "780 679 1100",
      "Connected ": "Yes",
      "Source": "Cybera",
      "CANARIE\nMember": "Yes",
      "AUCC \nMember": "yes",
      "Comments": "",
      "id": 40,
      "name": "University of Alberta",
      "latitude": 53.0142138,
      "longitude": -112.82395539999999
    },
    {
      "Type": "University",
      "Institutions - Eng Name": "University of Alberta",
      "Institutions - Fr Name": "University of Alberta",
      "Campus": "Calgary Centre",
      "Main/Sub Campus?": "Sub",
      "Address": "120-333 5 Ave SW,",
      "City": "Calgary",
      "Province": "Alberta",
      "Pcode": "T2P 3B6",
      "phone": "403 718 6375",
      "Connected ": "Yes",
      "Source": "Cybera",
      "CANARIE\nMember": "Yes",
      "AUCC \nMember": "TBC",
      "Comments": "",
      "id": 41,
      "name": "University of Alberta",
      "latitude": 51.048193,
      "longitude": -114.06982199999999
    },
    {
      "Type": "University",
      "Institutions - Eng Name": "University of Alberta",
      "Institutions - Fr Name": "University of Alberta",
      "Campus": "Campus Saint-Jean",
      "Main/Sub Campus?": "Sub",
      "Address": "8406 Marie-Anne-Gaboury Street (91 St) ",
      "City": "Edmonton",
      "Province": "Alberta",
      "Pcode": "T6C 4G9",
      "phone": "780 465 8700",
      "Connected ": "Yes",
      "Source": "Cybera",
      "CANARIE\nMember": "Yes",
      "AUCC \nMember": "TBC",
      "Comments": "",
      "id": 42,
      "name": "University of Alberta",
      "latitude": 53.52130649999999,
      "longitude": -113.46917259999998
    },
    {
      "Type": "University",
      "Institutions - Eng Name": "University of Alberta",
      "Institutions - Fr Name": "University of Alberta",
      "Campus": "Enterprise Square",
      "Main/Sub Campus?": "Sub",
      "Address": "1-047 Lister Centre, Uni of Alberta",
      "City": "Edmonton",
      "Province": "Alberta",
      "Pcode": "T6G 2H6",
      "phone": "(780) 492-6057",
      "Connected ": "Yes",
      "Source": "Cybera",
      "CANARIE\nMember": "Yes",
      "AUCC \nMember": "TBC",
      "Comments": "",
      "id": 43,
      "name": "University of Alberta",
      "latitude": 53.5284275,
      "longitude": -113.52644729999997
    },
    {
      "Type": "University",
      "Institutions - Eng Name": "University of Alberta",
      "Institutions - Fr Name": "University of Alberta",
      "Campus": "South Campus",
      "Main/Sub Campus?": "Sub",
      "Address": "118 Street SW",
      "City": "Edmonton",
      "Province": "Alberta",
      "Pcode": "",
      "phone": "780-492-3111",
      "Connected ": "Yes",
      "Source": "Cybera",
      "CANARIE\nMember": "Yes",
      "AUCC \nMember": "TBC",
      "Comments": "",
      "id": 44,
      "name": "University of Alberta",
      "latitude": 53.4117542,
      "longitude": -113.52793509999998
    },
    {
      "Type": "University",
      "Institutions - Eng Name": "University of Calgary",
      "Institutions - Fr Name": "University of Calgary",
      "Campus": "",
      "Main/Sub Campus?": "Main",
      "Address": "2500 University Drive NW",
      "City": "Calgary",
      "Province": "Alberta",
      "Pcode": "T2N 1N4",
      "phone": "(403) 220-5110 ",
      "Connected ": "Yes",
      "Source": "Cybera",
      "CANARIE\nMember": "Yes",
      "AUCC \nMember": "TBC",
      "Comments": "",
      "id": 45,
      "name": "University of Calgary",
      "latitude": 51.0802067,
      "longitude": -114.12533280000002
    },
    {
      "Type": "University",
      "Institutions - Eng Name": "University of Lethbridge",
      "Institutions - Fr Name": "University of Lethbridge",
      "Campus": "",
      "Main/Sub Campus?": "Main",
      "Address": "4401 University Drive West",
      "City": "Lethbridge",
      "Province": "Alberta",
      "Pcode": "T1K 3M4",
      "phone": "(403)315-2941",
      "Connected ": "Yes",
      "Source": "Cybera",
      "CANARIE\nMember": "Yes",
      "AUCC \nMember": "TBC",
      "Comments": "",
      "id": 46,
      "name": "University of Lethbridge",
      "latitude": 49.677404,
      "longitude": -112.86317099999997
    },
    {
      "Type": "Axia-switch",
      "Institutions - Eng Name": "cybera",
      "Institutions - Fr Name": "cybera",
      "Campus": "",
      "Main/Sub Campus?": "",
      "Address": "",
      "City": "Edmonton",
      "Province": "Alberta",
      "Pcode": "",
      "phone": "",
      "Connected ": "",
      "Source": "",
      "CANARIE\nMember": "",
      "AUCC \nMember": "",
      "Comments": "",
      "id": "47",
      "name": "",
      "latitude": "51.26579343080363",
      "longitude": "-113.92170461572213"
    },
    {
      "Type": "Leth-switch",
      "Institutions - Eng Name": "cybera",
      "Institutions - Fr Name": "",
      "Campus": "",
      "Main/Sub Campus?": "",
      "Address": "3528 30th Street North",
      "City": "Lethbridge",
      "Province": "Alberta",
      "Pcode": "T1J 4B1",
      "phone": "",
      "Connected ": "",
      "Source": "",
      "CANARIE\nMember": "",
      "AUCC \nMember": "",
      "Comments": "",
      "id": "48",
      "name": "",
      "latitude": "49.73036369999998",
      "longitude": "-112.78652250000002"
    }
  ],
  "linkList": [
    {
      "start": 0,
      "end": 37,
      "type": "10G"
    },
    {
      "start": 0,
      "end": 5,
      "type": "A"
    },
    {
      "start": "9",
      "end": "47",
      "type": "A"
    },
    {
      "start": "9",
      "end": 2,
      "type": "A"
    },
    {
      "start": "9",
      "end": 36,
      "type": "A"
    },
    {
      "start": "47",
      "end": 20,
      "type": "A"
    },
    {
      "start": "47",
      "end": 29,
      "type": "A"
    },
    {
      "start": "47",
      "end": 38,
      "type": "A"
    },
    {
      "start": "47",
      "end": 17,
      "type": "A"
    },
    {
      "start": "47",
      "end": 28,
      "type": "A"
    },
    {
      "start": "47",
      "end": 30,
      "type": "A"
    },
    {
      "start": "47",
      "end": 31,
      "type": "A"
    },
    {
      "start": "48",
      "end": "5",
      "type": "A"
    },
    {
      "start": "48",
      "end": 4,
      "type": "A"
    }
  ],
  "linkTypes":  { 
		"10G": { "strokeColor": "#30B9ED", "strokeOpacity": 1.0, "strokeWeight": 4},
		"A": { "strokeColor": "#ff0000", "strokeOpacity": 1.0, "strokeWeight": 4}
	},
	"mapStyle": [
	       		  {
	       		    "featureType": "landscape",
	       		    "stylers": [
	       		      { "visibility": "on" },
	       		      { "color": "#d9d9d9" }
	       		    ]
	       		  },{
	       		    "featureType": "poi",
	       		    "stylers": [
	       		      { "visibility": "off" }
	       		    ]
	       		  },{
	       		    "featureType": "road",
	       		    "stylers": [
	       		      { "visibility": "off" }
	       		    ]
	       		  },{
	       		    "featureType": "transit",
	       		    "stylers": [
	       		      { "visibility": "off" }
	       		    ]
	       		  },{
	       		    "featureType": "administrative.locality",
	       		    "stylers": [
	       		      { "visibility": "off" }
	       		    ]
	       		  },{
	       		    "featureType": "administrative.neighborhood",
	       		    "stylers": [
	       		      { "visibility": "off" }
	       		    ]
	       		  },{
	       		    "featureType": "administrative.land_parcel",
	       		    "stylers": [
	       		      { "visibility": "off" }
	       		    ]
	       		  },{
	       		    "featureType": "administrative.country",
	       		    "elementType": "labels.text.fill",
	       		    "stylers": [
	       		      { "color": "#000000" },
	       		      { "visibility": "on" }
	       		    ]
	       		  },{
	       		    "featureType": "administrative.province",
	       		    "stylers": [
	       		      { "visibility": "on" }
	       		    ]
	       		  },{
	       		    "featureType": "water",
	       		    "elementType": "geometry.fill",
	       		    "stylers": [
	       		      { "color": "#ffffff" },
	       		      { "visibility": "on" }
	       		    ]
	       		  },{
	       		    "elementType": "labels.text.fill",
	       		    "stylers": [
	       		      { "color": "#808080" }
	       		    ]
	       		  },{
	       		  }
	       		]
	
}